city,Lat,Lng,Max_Temp,Humidity,Cloudiness,Wind_Speed,Country,Date
vaini,-21.2,-175.2,82.4,83,75,9.22,TO,1612670002
kodiak,57.79,-152.4072,33.8,60,1,5.75,US,1612670002
jamestown,42.097,-79.2353,15.8,53,1,6.91,US,1612669912
tasiilaq,65.6145,-37.6368,33.8,51,50,21.85,GL,1612669433
ushuaia,-54.8,-68.3,48.2,76,75,12.66,AR,1612670002
albany,42.6001,-73.9662,21.99,51,7,1.77,US,1612669950
tiksi,71.6872,128.8694,-25.4,85,100,6.06,RU,1612669983
taltal,-25.4,-70.4833,63.46,76,5,2.35,CL,1612669538
khorramabad,33.4878,48.3558,42.49,84,100,3.42,IR,1612670003
russell,32.3502,-85.1999,42.8,87,90,5.75,US,1612670003
hamilton,39.1834,-84.5333,30.0,74,90,6.38,US,1612669184
bredasdorp,-34.5322,20.0403,64.4,94,99,2.3,ZA,1612669913
hermanus,-34.4187,19.2345,66.0,94,97,10.65,ZA,1612670003
mataura,-46.1927,168.8643,78.85,46,15,4.16,NZ,1612669917
butaritari,3.0707,172.7902,80.92,80,60,21.21,KI,1612669778
santa lucia,27.9117,-15.5407,61.0,77,75,12.66,ES,1612670004
matamoros,25.5333,-103.25,69.8,11,1,1.39,MX,1612669714
clinton,42.587,-82.9199,18.0,62,90,10.36,US,1612669752
victoria,22.2855,114.1577,77.0,38,0,14.97,HK,1612669935
kalmunai,7.4167,81.8167,81.1,81,23,11.52,LK,1612669428
ust-kuyga,70.0167,135.6,-26.5,82,99,5.82,RU,1612670004
puerto cabezas,14.0351,-83.3888,76.59,86,4,8.28,NI,1612670004
cabo san lucas,22.8909,-109.9124,66.2,68,20,3.44,MX,1612669331
xingyi,24.1877,102.817,52.34,93,100,0.65,CN,1612670004
port hedland,-20.3167,118.5667,89.6,48,40,12.66,AU,1612670005
harrison,30.4091,-89.0436,51.8,87,90,3.44,US,1612670005
japura,-0.3167,102.35,88.27,54,62,4.76,ID,1612670005
tomatlan,19.9333,-105.25,66.47,92,1,2.33,MX,1612669988
bengkulu,-3.8004,102.2655,86.45,55,94,8.05,ID,1612669838
puerto ayora,-0.7393,-90.3518,77.0,95,49,6.71,EC,1612669538
pacific grove,36.6177,-121.9166,52.0,87,1,4.45,US,1612670005
rikitea,-23.1203,-134.9692,78.42,71,87,10.58,PF,1612670005
isangel,-19.55,169.2667,87.8,70,40,5.75,VU,1612669975
sisimiut,66.9395,-53.6735,27.99,80,0,21.0,GL,1612669472
saskylakh,71.9167,114.0833,-42.21,78,22,7.74,RU,1612669919
punta arenas,-53.15,-70.9167,48.2,76,0,11.5,CL,1612669451
flinders,-34.5833,150.8552,81.0,60,75,13.8,AU,1612669940
mahibadhoo,3.7833,72.9667,81.21,74,52,12.37,MV,1612670006
teya,60.3778,92.6267,27.79,96,89,8.68,RU,1612670006
bilibino,68.0546,166.4372,-4.76,77,0,3.04,RU,1612670007
atuona,-9.8,-139.0333,79.83,80,86,21.9,PF,1612669914
yulara,-25.2406,130.9889,91.4,19,0,12.66,AU,1612669437
aklavik,68.2191,-135.0107,-16.6,76,100,5.75,CA,1612670007
saint-philippe,-21.3585,55.7679,82.4,69,0,4.61,RE,1612670007
nikolskoye,59.7035,30.7861,10.4,79,90,13.42,RU,1612669921
solnechnyy,50.7214,136.6319,3.27,87,100,7.72,RU,1612670007
bluff,-46.6,168.3333,61.09,77,0,11.18,NZ,1612670007
yellowknife,62.456,-114.3525,-41.01,66,1,2.3,CA,1612669999
sao francisco do sul,-26.2433,-48.6381,66.99,94,59,14.0,BR,1612670007
constitucion,-35.3333,-72.4167,56.7,88,26,3.11,CL,1612669856
cape town,-33.9258,18.4232,70.0,83,40,14.97,ZA,1612669522
avarua,-21.2078,-159.775,84.2,70,20,11.5,CK,1612670009
pevek,69.7008,170.3133,-7.74,87,0,4.5,RU,1612670009
radeberg,51.1167,13.9167,26.01,86,75,19.57,DE,1612670009
dikson,73.5069,80.5464,-27.69,87,91,9.26,RU,1612669420
acapulco,16.8634,-99.8901,78.8,78,1,5.75,MX,1612669924
shingu,33.7333,135.9833,59.0,47,20,16.11,JP,1612670009
hilo,19.7297,-155.09,75.2,60,90,5.75,US,1612670010
hobart,-42.8794,147.3294,71.01,48,20,23.02,AU,1612669765
alta floresta,-9.8756,-56.0861,71.17,99,100,2.17,BR,1612669799
chipinge,-20.1883,32.6236,64.18,100,22,2.21,ZW,1612669803
stamford,41.0534,-73.5387,36.0,51,1,4.29,US,1612669846
barrow,71.2906,-156.7887,-4.0,77,90,14.97,US,1612669925
mahajanga,-15.7167,46.3167,78.8,94,40,3.44,MG,1612670010
chuy,-33.6971,-53.4616,66.0,90,0,7.18,UY,1612669885
faanui,-16.4833,-151.75,82.71,67,1,8.75,PF,1612670011
tuktoyaktuk,69.4541,-133.0374,-14.8,76,90,21.85,CA,1612670011
verkhnetulomskiy,68.6073,31.7962,21.2,93,75,8.95,RU,1612670011
denpasar,-8.65,115.2167,87.8,66,20,4.61,ID,1612669796
khatanga,71.9667,102.5,-34.6,78,0,9.01,RU,1612670011
port elizabeth,-33.918,25.5701,68.0,77,0,12.66,ZA,1612669460
arraial do cabo,-22.9661,-42.0278,74.88,83,99,3.22,BR,1612669540
carballo,43.213,-8.691,39.0,95,89,3.6,ES,1612670011
thompson,55.7435,-97.8558,-29.2,62,40,11.5,CA,1612669924
hithadhoo,-0.6,73.0833,81.73,74,71,11.41,MV,1612669984
biskamzha,53.4497,89.5272,29.34,93,0,2.17,RU,1612670012
kangaba,11.9333,-8.4167,72.93,21,90,5.37,ML,1612670012
pemangkat,1.1667,108.9667,80.56,83,99,14.05,ID,1612669498
fortuna,40.5982,-124.1573,46.99,93,90,9.51,US,1612669973
busselton,-33.65,115.3333,61.0,94,100,3.0,AU,1612670012
new norfolk,-42.7826,147.0587,71.01,42,41,5.01,AU,1612669546
alexandria,31.2156,29.9553,55.4,94,0,3.44,EG,1612669924
chokurdakh,70.6333,147.9167,-24.84,85,60,5.44,RU,1612670012
stanita,47.0167,27.1,25.0,93,75,10.36,RO,1612670012
salimpur,28.128,76.2766,63.88,34,0,6.64,IN,1612670012
mahebourg,-20.4081,57.7,77.0,94,40,3.44,MU,1612669963
oranjemund,-28.55,16.4333,63.7,92,76,14.05,NA,1612669982
teahupoo,-17.8333,-149.2667,75.2,88,75,32.21,PF,1612670013
kon tum,14.35,108.0,88.11,38,22,2.26,VN,1612670013
richards bay,-28.783,32.0377,72.81,86,62,8.23,ZA,1612670013
bilma,18.6853,12.9164,57.97,31,34,5.77,NE,1612669473
gigmoto,13.7796,124.39,82.65,72,83,13.06,PH,1612670013
nanortalik,60.1432,-45.2371,27.0,93,100,3.24,GL,1612670013
jalu,29.0331,21.5482,56.34,46,0,8.72,LY,1612669821
upernavik,72.7868,-56.1549,19.54,76,20,6.51,GL,1612670014
sao joao da barra,-21.6403,-41.0511,68.9,95,100,13.85,BR,1612669520
port alfred,-33.5906,26.891,68.0,83,34,4.0,ZA,1612669505
beyneu,45.3167,55.2,30.92,86,85,9.75,KZ,1612670014
porto santo,33.072,-16.3415,57.2,72,20,10.36,PT,1612670014
sidi ali,36.0998,0.4206,50.85,86,99,14.83,DZ,1612670014
ribeira grande,38.5167,-28.7,61.23,89,94,21.97,PT,1612669546
abu samrah,35.3029,37.1841,48.25,75,0,5.55,SY,1612669998
vostok,46.4856,135.8833,-2.61,89,100,5.46,RU,1612669901
mogzon,51.7435,111.9606,2.61,90,100,4.32,RU,1612670014
srednekolymsk,67.45,153.6833,-13.94,83,1,1.36,RU,1612669444
krasnoborsk,61.5598,45.934,-16.69,85,99,9.69,RU,1612670015
rumilly,45.8667,5.95,48.2,81,90,8.05,FR,1612670015
qaanaaq,77.484,-69.3632,12.47,91,100,5.66,GL,1612670015
jaipur,26.9167,75.8167,60.8,51,0,2.3,IN,1612670015
antalaha,-14.9003,50.2788,77.54,81,96,3.8,MG,1612669276
mount isa,-20.7333,139.5,80.6,89,90,9.22,AU,1612669794
kapaa,22.0752,-159.319,71.6,56,75,3.44,US,1612669917
port hardy,50.6996,-127.4199,41.0,87,90,8.05,CA,1612669806
vila,42.0304,-8.1588,34.0,93,56,1.36,PT,1612670016
north bend,43.4065,-124.2243,46.99,93,90,4.61,US,1612670016
kupino,54.3663,77.2981,34.03,91,100,24.72,RU,1612670016
georgetown,5.4112,100.3354,87.8,66,20,3.44,MY,1612670016
fayaoue,-20.65,166.5333,80.69,70,0,2.21,NC,1612669938
cartagena,10.3997,-75.5144,78.8,83,0,9.22,CO,1612669742
bethel,41.3712,-73.414,32.0,68,1,3.78,US,1612669923
monte patria,-30.6919,-70.9467,60.15,63,0,0.63,CL,1612670016
port blair,11.6667,92.75,84.2,74,40,10.36,IN,1612669704
itaueira,-7.6033,-43.0256,72.12,87,96,1.16,BR,1612670016
buraydah,26.326,43.975,48.2,100,75,4.61,SA,1612669722
huangchuan,32.1272,115.0394,60.85,45,45,5.77,CN,1612670017
codrington,-38.2667,141.9667,63.54,60,73,14.76,AU,1612669943
maniitsoq,65.4167,-52.9,31.57,81,0,23.58,GL,1612670017
bubaque,11.2833,-15.8333,77.7,51,52,22.44,GW,1612670017
xuddur,4.1213,43.8894,65.77,86,18,17.16,SO,1612670011
alofi,-19.0595,-169.9187,84.2,79,100,10.36,NU,1612669504
cidreira,-30.1811,-50.2056,66.49,78,5,7.16,BR,1612670017
sitka,57.0531,-135.33,32.0,55,20,4.61,US,1612669941
olafsvik,64.8945,-23.7142,34.23,82,13,15.55,IS,1612670017
ponta do sol,32.6667,-17.1,54.0,64,33,4.0,PT,1612669452
mehran,33.1222,46.1646,42.8,93,90,5.28,IR,1612670018
bathsheba,13.2167,-59.5167,77.0,73,40,20.71,BB,1612670009
klyuchi,52.2667,79.1667,36.09,90,94,19.39,RU,1612670018
phultala,22.7,89.5167,73.27,47,70,6.53,BD,1612670018
aksarka,66.5606,67.7975,-32.31,83,100,23.13,RU,1612669811
boyolangu,-8.1181,111.8935,87.31,65,20,6.82,ID,1612669750
waingapu,-9.6567,120.2641,86.52,65,39,8.75,ID,1612670018
rocha,-34.4833,-54.3333,62.62,93,2,3.47,UY,1612670018
dangara,29.6799,75.8931,60.13,47,0,6.76,IN,1612670018
ambilobe,-13.2,49.05,76.01,89,68,2.33,MG,1612669936
norman wells,65.282,-126.8329,-29.2,75,75,3.44,CA,1612670019
pirapemas,-3.7267,-44.2233,72.43,95,88,1.07,BR,1612670019
shakawe,-18.3667,21.85,68.36,94,99,5.3,BW,1612669773
warkworth,-36.4,174.6667,78.01,57,94,3.0,NZ,1612670019
sistranda,63.7256,8.834,21.2,86,20,13.8,NO,1612670019
greeley,40.4233,-104.7091,24.01,80,90,5.75,US,1612670019
talnakh,69.4865,88.3972,-30.17,72,0,1.34,RU,1612669529
provideniya,64.3833,-173.3,-2.06,85,1,8.66,RU,1612670040
cachoeiras de macacu,-22.4625,-42.6531,77.0,90,100,1.72,BR,1612670041
nahrin,36.0649,69.1334,54.3,40,40,2.86,AF,1612670041
torbay,47.6666,-52.7314,37.99,100,90,24.16,CA,1612669918
santa isabel do rio negro,-0.4139,-65.0192,74.43,94,88,0.74,BR,1612670041
vardo,70.3705,31.1107,26.01,92,99,27.96,NO,1612669923
naze,28.3667,129.4833,68.0,56,40,10.36,JP,1612669947
sonepur,20.8333,83.9167,73.33,35,0,2.71,IN,1612670042
buckeye,33.3703,-112.5838,60.01,35,0,5.75,US,1612670022
midland,31.9974,-102.0779,50.0,17,1,4.61,US,1612669946
east london,-33.0153,27.9116,66.2,94,20,11.5,ZA,1612669495
quatre cocos,-20.2078,57.7625,81.0,94,40,3.44,MU,1612670042
bayeux,-7.125,-34.9322,78.8,83,0,3.44,BR,1612670042
ondjiva,-17.0667,15.7333,71.87,58,98,5.41,AO,1612670042
baculin,7.4525,126.5842,80.55,81,100,8.19,PH,1612670042
andijon,40.7821,72.3442,44.6,49,75,6.71,UZ,1612669449
vasai,19.47,72.8,78.8,27,0,8.05,IN,1612669860
shirokiy,49.758,129.523,-10.19,88,38,8.52,RU,1612670043
xining,36.6167,101.7667,31.82,61,73,2.48,CN,1612669462
jieshi,22.8134,115.8257,72.0,62,0,15.32,CN,1612670043
kavieng,-2.5744,150.7967,85.66,65,67,5.48,PG,1612669799
mar del plata,-38.0023,-57.5575,64.0,77,20,11.5,AR,1612669346
vestmannaeyjar,63.4427,-20.2734,36.55,81,41,21.72,IS,1612669491
san policarpo,12.1791,125.5072,81.37,85,40,14.65,PH,1612670043
gambiran,-6.7988,111.4951,83.7,76,59,16.26,ID,1612670043
gawler,-34.6,138.7333,70.0,61,60,4.0,AU,1612669841
kirakira,-10.4544,161.9205,79.56,86,100,9.73,SB,1612669202
marzuq,14.4,46.4667,58.89,67,0,1.83,YE,1612670043
kismayo,-0.3582,42.5454,77.13,81,25,11.86,SO,1612670044
schattdorf,46.8655,8.6547,41.0,87,0,5.75,CH,1612670044
zhezkazgan,47.8043,67.7144,14.54,94,46,12.01,KZ,1612670044
lagoa,39.05,-27.9833,60.22,91,98,27.87,PT,1612669821
duluth,46.7833,-92.1066,-11.2,53,1,16.11,US,1612670044
piacabucu,-10.4056,-36.4344,77.67,85,37,11.97,BR,1612670044
dingle,10.9995,122.6711,82.35,79,58,13.65,PH,1612670044
cayenne,4.9333,-52.3333,77.0,100,90,4.61,GF,1612670044
severo-kurilsk,50.6789,156.125,21.92,94,100,24.45,RU,1612670044
pontal do parana,-25.6533,-48.5128,59.0,95,68,4.0,BR,1612669792
bharatpur,27.2167,77.4833,63.21,35,0,7.18,IN,1612670045
imeni zhelyabova,58.9544,36.5956,4.55,93,100,10.11,RU,1612670045
castro,-24.7911,-50.0119,60.75,90,67,9.62,BR,1612669878
sehithwa,-20.4667,22.7167,69.42,92,100,4.18,BW,1612670045
grand gaube,-20.0064,57.6608,81.0,82,1,3.0,MU,1612669784
rabo de peixe,37.8,-25.5833,59.0,94,75,17.27,PT,1612670045
veracruz,19.3333,-96.6667,75.99,94,1,4.61,MX,1612669809
iracoubo,5.4802,-53.2011,76.82,88,99,11.45,GF,1612670045
berlevag,70.8578,29.0864,26.08,92,100,25.99,NO,1612669974
lebu,-37.6167,-73.65,57.33,93,17,2.77,CL,1612670045
ketchikan,55.3422,-131.6461,37.4,93,40,6.91,US,1612670005
wenatchee,47.4235,-120.3103,45.0,70,1,11.5,US,1612670046
nova odesa,47.3078,31.7851,26.91,87,97,9.1,UA,1612670046
labrea,-7.2586,-64.7981,74.82,97,100,2.75,BR,1612669826
faya,18.3851,42.4509,48.2,87,0,3.69,SA,1612670046
necochea,-38.5473,-58.7368,57.99,85,14,9.53,AR,1612670046
auki,-8.7676,160.7034,77.07,90,100,11.9,SB,1612669818
onega,63.9061,38.1404,-11.72,88,25,4.88,RU,1612670046
kavaratti,10.5669,72.642,81.64,59,86,8.75,IN,1612670046
xinqing,48.2333,129.5,-0.92,83,98,7.49,CN,1612670046
brookings,44.3114,-96.7984,-9.0,77,1,4.61,US,1612670047
roebourne,-20.7833,117.1333,86.22,42,0,13.27,AU,1612670047
paamiut,61.994,-49.6678,26.06,80,75,3.38,GL,1612669795
gravdal,68.1214,13.5031,30.94,94,68,6.89,NO,1612670047
cap malheureux,-19.9842,57.6142,82.0,80,1,4.0,MU,1612670047
clyde river,70.4692,-68.5914,-11.2,84,20,2.3,CA,1612669806
mahon,39.8885,4.2658,53.6,87,20,8.05,ES,1612670047
pringsewu,-5.3582,104.9744,81.63,77,100,5.39,ID,1612670047
kenitra,34.261,-6.5802,50.0,93,75,12.66,MA,1612670047
medicine hat,50.0501,-110.6683,-9.0,70,90,9.22,CA,1612670047
soyo,-6.1349,12.3689,79.52,85,100,7.18,AO,1612670048
luderitz,-26.6481,15.1594,67.03,73,0,24.74,NA,1612670048
longyearbyen,78.2186,15.6401,14.0,79,75,14.97,SJ,1612669967
iqaluit,63.7506,-68.5145,24.8,68,90,5.75,CA,1612670048
matagami,49.7502,-77.6328,1.4,85,90,3.44,CA,1612670049
suntar,62.1444,117.6319,-6.97,90,98,3.53,RU,1612670049
anadyr,64.75,177.4833,-11.0,77,0,4.47,RU,1612669916
bafia,4.75,11.2333,68.29,97,98,1.9,CM,1612670049
san cristobal,7.7669,-72.225,65.75,88,100,1.68,VE,1612669552
vao,-22.6667,167.4833,78.55,80,0,11.39,NC,1612670050
moree,-29.4667,149.85,87.8,33,40,16.11,AU,1612670028
santiago del estero,-27.7951,-64.2615,72.0,64,0,1.99,AR,1612669767
puerto ayacucho,5.6639,-67.6236,78.89,66,100,5.17,VE,1612670050
marsa matruh,31.3525,27.2453,48.2,93,0,6.91,EG,1612670008
adrar,20.5022,-10.0711,53.76,43,99,11.9,MR,1612669801
naryan-mar,67.6713,53.087,-24.2,85,100,12.95,RU,1612670050
puerto escondido,15.85,-97.0667,76.96,75,3,5.73,MX,1612669818
kruisfontein,-34.0033,24.7314,66.99,79,1,3.0,ZA,1612670050
pisco,-13.7,-76.2167,69.8,83,75,3.44,PE,1612669542
lima,-12.0432,-77.0282,75.0,73,75,6.91,PE,1612670051
fare,-16.7,-151.0167,82.56,69,4,10.07,PF,1612670051
zaozerne,45.1582,33.2787,34.63,88,99,17.65,UA,1612670051
kaitangata,-46.2817,169.8464,66.0,74,3,8.99,NZ,1612669833
la rioja,42.25,-2.5,37.4,93,0,10.36,ES,1612670051
salisbury,51.0693,-1.7957,37.0,100,75,18.41,GB,1612669802
casas grandes,30.3667,-107.95,48.92,43,0,0.56,MX,1612670051
roald,62.5833,6.1333,24.8,68,2,12.66,NO,1612670051
coihaique,-45.5752,-72.0662,60.8,55,0,14.97,CL,1612669953
athabasca,54.7169,-113.2854,-31.0,68,97,1.14,CA,1612670051
haines junction,60.7522,-137.5108,-20.2,76,64,1.14,CA,1612670051
healesville,-37.65,145.5167,64.99,77,82,8.01,AU,1612670052
tazovskiy,67.4667,78.7,-22.65,86,98,12.01,RU,1612670052
sakaiminato,35.55,133.2333,53.6,62,75,11.5,JP,1612670052
lewisburg,35.4492,-86.7889,33.8,93,90,4.61,US,1612670052
boende,-0.2167,20.8667,71.76,90,7,2.06,CD,1612670052
endirey,43.1632,46.654,33.85,86,5,7.14,RU,1612670052
murgab,37.4966,61.9714,44.6,81,75,4.61,TM,1612670052
la ronge,55.1001,-105.2842,-27.4,68,23,5.75,CA,1612669645
fairbanks,64.8378,-147.7164,-5.01,77,90,2.62,US,1612669917
carnarvon,-24.8667,113.6333,86.0,100,40,12.66,AU,1612670053
egvekinot,66.3167,-179.1667,-8.1,74,0,5.99,RU,1612670053
cherskiy,68.75,161.3,-4.18,81,0,2.95,RU,1612670053
coahuayana,18.7333,-103.6833,69.62,86,0,2.68,MX,1612669826
pathalgaon,22.5667,83.4667,66.76,32,0,4.81,IN,1612670053
esperance,-33.8667,121.9,60.8,94,90,12.66,AU,1612670053
derzhavinsk,51.1,66.3167,5.56,92,100,24.18,KZ,1612670054
mogadishu,2.0371,45.3438,76.32,80,1,18.21,SO,1612670054
zeitz,51.05,12.15,25.0,98,100,1.99,DE,1612670054
nalut,30.3333,10.85,60.48,30,100,3.67,LY,1612670054
hoi an,15.8794,108.335,75.2,78,75,2.3,VN,1612670054
moba,33.2288,105.0179,44.85,48,37,4.94,CN,1612670054
gamba,-2.65,10.0,78.15,89,95,2.66,GA,1612670054
gobabis,-22.45,18.9667,66.92,78,0,6.29,NA,1612670017
fraga,41.5229,0.3489,45.0,81,90,13.8,ES,1612670055
tapiogyorgye,47.335,19.9528,33.8,86,90,11.5,HU,1612670055
camacha,33.0833,-16.3333,57.2,72,20,10.36,PT,1612669923
aykhal,66.0,111.5,-28.68,83,60,8.77,RU,1612669823
lavrentiya,65.5833,-171.0,-12.17,79,0,4.25,RU,1612670055
doha,25.2867,51.5333,69.8,83,0,5.75,QA,1612669920
lerwick,60.1545,-1.1494,33.8,64,90,18.41,GB,1612669817
taganak,6.0833,118.3,84.2,79,20,3.44,PH,1612670056
huarmey,-10.0681,-78.1522,71.37,76,100,7.29,PE,1612670056
peniche,39.3558,-9.3811,53.01,68,11,8.99,PT,1612670056
souillac,-20.5167,57.5167,77.0,94,40,3.44,MU,1612669819
bandar-e anzali,37.4727,49.4622,48.2,100,90,3.47,IR,1612670057
waxahachie,32.3865,-96.8483,46.4,76,75,5.75,US,1612670057
neiafu,-18.65,-173.9833,78.8,94,90,12.66,TO,1612669551
danielskuil,-28.1887,23.5395,62.82,91,4,8.55,ZA,1612670057
sao filipe,14.8961,-24.4956,68.56,75,19,15.08,CV,1612669796
ahipara,-35.1667,173.1667,68.07,69,97,1.57,NZ,1612669931
makakilo city,21.3469,-158.0858,78.8,44,1,13.8,US,1612670058
san patricio,28.017,-97.5169,64.4,67,1,5.75,US,1612669551
parana,-31.732,-60.5238,71.01,72,0,7.16,AR,1612669975
portland,45.5234,-122.6762,46.99,87,75,6.91,US,1612669419
tashtagol,52.7657,87.8894,25.32,93,0,3.56,RU,1612670058
port lincoln,-34.7333,135.8667,65.23,62,81,13.53,AU,1612669552
ayorou,14.7308,0.9174,74.25,20,97,8.88,NE,1612670058
witbank,-25.8713,29.2332,60.96,89,100,0.67,ZA,1612670059
bambous virieux,-20.3428,57.7575,80.01,94,40,3.44,MU,1612669545
sept-iles,50.2001,-66.3821,26.6,68,99,12.66,CA,1612670059
carman,49.4992,-98.0016,-18.4,63,25,9.22,CA,1612670059
marang,5.2056,103.2059,84.2,70,40,6.91,MY,1612670059
sorland,67.667,12.6934,33.06,92,41,13.47,NO,1612670060
fort nelson,58.8053,-122.7002,-25.6,68,1,2.3,CA,1612669508
tucuman,-26.8241,-65.2226,80.6,54,75,9.22,AR,1612670061
katobu,-4.9408,122.5276,87.91,61,100,6.15,ID,1612670061
leningradskiy,69.3833,178.4167,-11.29,73,9,5.7,RU,1612670061
makushino,55.2103,67.2442,12.61,94,100,22.91,RU,1612670061
coquimbo,-29.9533,-71.3436,59.0,82,0,4.61,CL,1612669988
sao felix do xingu,-6.6447,-51.995,72.82,94,100,1.01,BR,1612670061
karratha,-20.7377,116.8463,84.88,44,0,13.27,AU,1612669785
campbellton,48.0075,-66.6727,19.4,68,3,12.66,CA,1612670062
mecca,21.4267,39.8261,64.13,55,0,5.86,SA,1612670062
kloulklubed,7.0419,134.2556,82.4,89,75,12.66,PW,1612670062
yenagoa,4.9247,6.2642,77.9,92,15,3.33,NG,1612669820
maralal,1.0968,36.698,56.01,88,1,3.38,KE,1612670063
mirabad,30.4362,61.8383,58.46,26,0,6.44,AF,1612670064
saldanha,-33.0117,17.9442,66.2,88,2,5.75,ZA,1612670064
ancud,-41.8697,-73.8203,59.0,67,0,3.44,CL,1612670065
bereda,43.2686,-7.5406,36.0,100,78,1.01,ES,1612670065
rumford,44.5537,-70.5509,24.01,64,9,5.03,US,1612669790
aksu,41.1231,80.2644,37.9,60,100,2.33,CN,1612670065
ilulissat,69.2167,-51.1,28.4,40,0,23.02,GL,1612670018
labuhan,-6.8844,112.2051,83.21,80,10,16.44,ID,1612670065
seryshevo,51.0933,128.3786,-8.81,87,8,6.22,RU,1612670065
porto walter,-8.2686,-72.7439,74.43,90,100,1.12,BR,1612670065
monrovia,6.3005,-10.7969,75.2,100,40,4.59,LR,1612670066
beitbridge,-22.2167,30.0,73.36,84,100,11.32,ZW,1612670066
geri,35.1,33.4167,48.2,93,75,3.44,CY,1612670066
flin flon,54.7682,-101.865,-31.11,82,1,8.75,CA,1612670066
mponela,-13.5319,33.7401,64.51,95,100,5.7,MW,1612670066
tikrit,34.6071,43.6782,56.37,84,100,5.41,IQ,1612670066
geraldton,-28.7667,114.6,75.2,69,90,21.85,AU,1612670033
narsaq,60.9167,-46.05,44.6,31,75,17.27,GL,1612670066
atbasar,51.8,68.3333,7.79,93,100,24.85,KZ,1612669522
robertsport,6.7533,-11.3686,78.89,86,70,3.47,LR,1612670067
kiama,-34.6833,150.8667,75.2,60,75,13.8,AU,1612670067
montepuez,-13.1256,38.9997,70.27,99,100,1.95,MZ,1612670002
sekoma,-24.4,23.8833,66.27,91,85,9.75,BW,1612670067
ruteng,-8.6136,120.4721,73.49,89,98,2.73,ID,1612669552
iskateley,67.6803,53.1512,-25.94,85,100,13.94,RU,1612670067
carbajales,15.5167,-86.35,75.2,88,20,3.44,HN,1612670068
rondonopolis,-16.4708,-54.6356,72.63,77,95,1.23,BR,1612670068
cockburn town,21.4612,-71.1419,77.16,78,0,22.1,TC,1612669641
opuwo,-18.0607,13.84,69.48,43,92,3.11,NA,1612669795
fuxin,42.0156,121.6589,19.49,69,0,14.99,CN,1612670068
umm kaddadah,13.6017,26.6876,54.68,40,0,12.91,SD,1612669823
kenai,60.5544,-151.2583,16.0,86,90,3.44,US,1612670068
dudinka,69.4058,86.1778,-35.73,80,0,8.75,RU,1612670068
west lafayette,40.4259,-86.9081,17.6,73,90,10.36,US,1612670068
saint george,37.1041,-113.5841,52.0,24,1,3.44,US,1612669522
edson,53.5835,-116.4356,-14.8,76,1,2.3,CA,1612670069
matara,5.9485,80.5353,81.79,72,82,3.33,LK,1612669966
zambezi,-13.5432,23.1047,65.57,96,100,7.49,ZM,1612670069
quilmana,-12.95,-76.3833,71.17,75,100,2.1,PE,1612670069
tual,-5.6667,132.75,83.89,79,100,21.32,ID,1612670069
ponta delgada,37.7333,-25.6667,59.0,94,75,17.27,PT,1612669793
richmond,37.5538,-77.4603,46.99,46,40,8.05,US,1612669950
ostrovnoy,68.0531,39.5131,6.96,92,100,10.76,RU,1612670069
havre-saint-pierre,50.2334,-63.5986,26.6,93,90,34.52,CA,1612670069
namibe,-15.1961,12.1522,70.88,80,61,2.17,AO,1612670069
khandyga,62.6667,135.6,-19.73,84,89,1.72,RU,1612670070
plettenberg bay,-34.0527,23.3716,66.58,82,50,6.8,ZA,1612669539
nicoya,10.1483,-85.452,80.6,65,0,10.36,CR,1612669783
hambantota,6.1241,81.1185,78.8,94,0,8.05,LK,1612670070
parang,7.3704,124.2697,86.2,56,100,0.69,PH,1612670070
lompoc,34.6391,-120.4579,51.01,93,40,4.47,US,1612669868
christchurch,-43.5333,172.6333,68.0,64,0,23.02,NZ,1612670070
vila velha,-20.3297,-40.2925,73.4,88,90,6.91,BR,1612669616
nantucket,41.2835,-70.0995,37.99,75,1,9.22,US,1612669851
batticaloa,7.7102,81.6924,80.58,81,18,12.08,LK,1612670071
prado,-17.3411,-39.2208,77.29,90,100,12.64,BR,1612670071
dalby,-27.1833,151.2667,91.99,45,61,3.0,AU,1612670071
puerto leguizamo,-0.1934,-74.7819,73.11,96,100,1.43,CO,1612670071
klaksvik,62.2266,-6.589,35.6,64,75,17.27,FO,1612669874
liwale,-9.7667,37.9333,70.93,98,100,3.67,TZ,1612670071
honningsvag,70.9821,25.9704,27.81,94,100,25.32,NO,1612670071
muravlenko,63.7898,74.523,6.08,95,100,18.52,RU,1612670071
shasta lake,40.6804,-122.3708,59.0,31,1,4.61,US,1612670071
roma,43.2128,-75.4557,15.01,73,1,1.41,US,1612669949
veraval,20.9,70.3667,74.52,29,0,16.02,IN,1612670072
okha,53.5739,142.9478,6.78,94,100,11.45,RU,1612670072
nizhniy baskunchak,48.2198,46.8311,24.33,85,34,11.83,RU,1612670072
inhambane,-23.865,35.3833,76.59,87,92,7.31,MZ,1612670072
natal,-5.795,-35.2094,77.0,88,40,4.61,BR,1612669788
hienghene,-20.6833,164.9333,79.97,71,31,3.91,NC,1612670072
kutum,14.2,24.6667,45.1,56,6,8.01,SD,1612670014
vikulovo,56.8167,70.6107,27.16,97,100,23.6,RU,1612670072
grootfontein,-19.5667,18.1167,66.79,85,98,7.34,NA,1612670072
padang,-0.9492,100.3543,89.6,55,20,1.14,ID,1612670043
pangnirtung,66.1451,-65.7125,23.23,80,93,3.36,CA,1612669981
nhamunda,-2.1861,-56.7131,76.75,87,40,2.42,BR,1612670073
bismarck,46.8083,-100.7837,-7.6,59,1,6.91,US,1612669947
nkongsamba,4.9547,9.9404,65.82,86,79,1.83,CM,1612670073
manaus,-3.1019,-60.025,78.8,89,0,4.61,BR,1612669492
dongying,37.4564,118.4856,38.17,66,4,12.41,CN,1612670073
el obraje,14.0,-86.4333,69.28,82,0,1.77,HN,1612670073
ashcroft,50.7165,-121.2859,33.8,55,75,16.11,CA,1612669537
marsh harbour,26.5412,-77.0636,75.22,87,48,18.88,BS,1612670074
desaguadero,-16.5656,-69.0417,47.25,77,5,8.28,PE,1612670074
trelew,-43.249,-65.3051,58.41,65,44,15.75,AR,1612670074
cloquet,46.7216,-92.4594,-15.0,63,1,13.8,US,1612670074
huambo,-12.7761,15.7392,60.19,93,100,1.63,AO,1612669814
rozivka,46.9385,35.7724,25.66,86,96,8.43,UA,1612670074
bonavista,48.6499,-53.1147,39.0,100,91,8.05,CA,1612670074
oistins,13.0667,-59.5333,77.0,73,40,20.71,BB,1612670074
bobon,12.5246,124.5636,80.13,87,100,12.66,PH,1612670074
dunedin,-45.8742,170.5036,61.0,77,0,28.99,NZ,1612669449
mayumba,-3.432,10.6554,79.5,83,100,3.89,GA,1612670075
novyy urgal,51.0736,132.5642,-2.63,85,98,1.03,RU,1612670075
dalvik,65.9702,-18.5286,32.0,74,90,5.75,IS,1612670075
mitzic,0.7821,11.549,67.91,100,70,2.42,GA,1612670075
udachnyy,66.4167,112.4,-29.67,81,6,7.61,RU,1612669980
caravelas,-17.7125,-39.2481,77.45,89,100,7.74,BR,1612670075
airai,-8.9266,125.4092,74.03,75,56,5.39,TL,1612670076
grindavik,63.8424,-22.4338,33.8,60,0,14.97,IS,1612670076
mikun,62.3547,50.0771,-19.77,85,100,11.12,RU,1612670076
belmonte,-15.8631,-38.8828,77.0,88,20,4.61,BR,1612669802
dukat,62.55,155.55,0.64,90,100,12.3,RU,1612670076
sioni,41.9895,45.0239,37.4,75,0,3.44,GE,1612670076
kant,27.8,79.8,59.34,52,0,7.65,IN,1612670076
plavinas,56.6178,25.7255,-0.06,91,0,2.35,LV,1612670076
ayr,55.4627,-4.6339,35.6,75,75,16.11,GB,1612670076
nadadores,27.05,-101.6,59.59,32,0,3.04,MX,1612670077
non sung,15.1801,102.2569,82.0,83,0,4.61,TH,1612670077
hun,29.1268,15.9477,62.87,28,100,9.93,LY,1612670077
mankono,8.0586,-6.1897,75.69,81,96,5.93,CI,1612670077
kilindoni,-7.9139,39.6668,81.73,76,97,10.47,TZ,1612670077
melfi,40.9965,15.6514,55.4,33,0,8.05,IT,1612670077
dayong,25.0209,118.2898,71.6,60,0,4.47,CN,1612670077
sembabule,-0.0772,31.4567,63.27,75,44,2.51,UG,1612670078
shubarkuduk,49.1447,56.4872,11.75,95,95,9.44,KZ,1612670078
nemuro,43.3236,145.575,21.2,86,75,11.5,JP,1612670078
svetlaya,46.5389,138.3297,14.02,83,83,7.76,RU,1612670078
totma,59.9747,42.7642,-12.37,88,100,8.28,RU,1612670078
honiara,-9.4333,159.95,78.33,87,100,7.87,SB,1612670078
katsuura,35.1333,140.3,61.0,47,0,8.05,JP,1612669941
matadi,-5.8167,13.45,77.79,89,100,3.2,CD,1612670078
wladyslawowo,54.7909,18.4009,15.01,92,0,4.61,PL,1612670078
takaka,-40.85,172.8,68.4,53,17,4.81,NZ,1612670079
beringovskiy,63.05,179.3167,-8.41,90,72,10.49,RU,1612670079
innisfail,-17.5333,146.0333,87.1,69,85,8.77,AU,1612670079
twentynine palms,34.1356,-116.0542,55.99,22,1,5.75,US,1612670079
sobolevo,54.4299,31.8996,-6.07,91,43,7.49,RU,1612670079
owando,-0.4819,15.8999,72.73,90,57,4.07,CG,1612670079
gazanjyk,39.2446,55.5154,46.02,81,100,9.6,TM,1612670079
le vauclin,14.5452,-60.8388,75.2,88,75,14.97,MQ,1612670079
margate,51.3813,1.3862,36.0,86,100,5.99,GB,1612670080
monduli,-3.3,36.45,64.4,88,75,5.75,TZ,1612670080
luangwa,-15.6167,30.4167,71.11,93,100,1.45,ZM,1612670080
bull savanna,17.8868,-77.5902,73.54,88,13,12.15,JM,1612670080
cochrane,51.1834,-114.4687,-7.6,77,90,4.61,CA,1612669940
nizhnevartovsk,60.9344,76.5531,33.8,93,90,13.42,RU,1612670080
cairns,-16.9167,145.7667,90.0,74,100,10.36,AU,1612669537
kanashevo,55.2169,62.0634,10.4,79,75,17.9,RU,1612670080
lodja,-3.4833,23.4333,71.46,89,100,1.54,CD,1612670080
nikki,9.9401,3.2108,71.2,24,0,2.68,BJ,1612670080
abbeville,50.1,1.8333,34.0,84,100,13.49,FR,1612669942
iralaya,15.0,-83.2333,78.04,82,0,10.02,HN,1612670081
ciechocinek,52.8791,18.7951,10.99,84,75,1.01,PL,1612669820
eureka,40.8021,-124.1637,46.99,87,26,1.99,US,1612670081
vaitape,-16.5167,-151.75,82.6,68,1,11.25,PF,1612670081
bethlehem,-1.4558,-48.5044,78.8,89,0,4.61,BR,1612670081
artyom,40.4723,50.333,44.6,81,0,9.22,AZ,1612670081
nidzica,53.3605,20.4275,-9.4,77,0,6.98,PL,1612670081
sola,-13.8833,167.55,87.8,71,75,3.29,VU,1612669794
strezhevoy,60.7333,77.5889,33.8,93,90,13.42,RU,1612670082
hirara,24.8,125.2833,75.2,69,20,9.22,JP,1612670082
muros,42.7762,-9.0603,43.0,93,40,3.44,ES,1612670082
avera,33.194,-82.5271,39.2,93,90,10.36,US,1612670082
giyon,8.5333,37.9833,58.42,71,97,7.74,ET,1612670082
xai-xai,-25.0519,33.6442,76.01,81,100,2.13,MZ,1612670082
agirish,61.9247,63.0231,-18.09,88,100,12.48,RU,1612670082
payakumbuh,-0.2202,100.6308,82.72,60,100,2.59,ID,1612670082
comodoro rivadavia,-45.8667,-67.5,57.2,72,40,8.05,AR,1612669502
sarkand,45.41,79.9186,37.2,87,100,4.25,KZ,1612670082
baykit,61.67,96.37,21.54,94,100,6.58,RU,1612670083
taoudenni,22.6783,-3.9836,57.42,40,43,9.69,ML,1612670083
vanimo,-2.6741,141.3028,81.82,82,99,7.2,PG,1612670083
nouadhibou,20.931,-17.0347,60.8,72,0,20.71,MR,1612670083
mandalgovi,45.7625,106.2708,15.28,81,0,8.32,MN,1612670020
sibolga,1.7427,98.7792,87.39,55,25,3.85,ID,1612669946
los llanos de aridane,28.6585,-17.9182,60.8,63,0,4.61,ES,1612670083
sioux lookout,50.1001,-91.917,-16.6,63,90,12.66,CA,1612670083
otaru,43.1894,141.0022,34.0,74,75,21.85,JP,1612670083
strzelce krajenskie,52.8773,15.5298,19.99,51,100,11.99,PL,1612670084
hervey bay,-25.2986,152.8535,89.6,48,18,14.97,AU,1612670084
gat,31.61,34.7642,54.0,100,0,1.92,IL,1612669476
gao,16.6362,1.637,71.37,19,100,11.1,ML,1612669825
laguna,38.421,-121.4238,52.0,71,1,3.47,US,1612670084
saravan,39.7196,45.6483,28.4,86,20,6.91,AM,1612670084
jumla,29.2747,82.1838,46.13,45,0,5.44,NP,1612670084
santa fe,-31.6333,-60.7,71.01,72,0,6.55,AR,1612670084
fergus falls,46.283,-96.0776,-16.6,69,1,6.91,US,1612670084
aurillac,44.9167,2.45,41.0,93,100,9.22,FR,1612670084
hualmay,-11.0964,-77.6139,70.86,78,100,6.6,PE,1612669933
general roca,-39.0333,-67.5833,73.4,73,0,3.44,AR,1612670085
yakima,46.4665,-120.6678,51.8,37,1,27.63,US,1612670085
erenhot,43.6475,111.9767,13.95,93,0,8.39,CN,1612670085
abu dhabi,24.4667,54.3667,68.0,60,0,16.11,AE,1612669817
pochutla,15.7432,-96.4661,78.01,82,4,3.0,MX,1612670085
kangaatsiaq,68.3065,-53.4641,23.77,87,0,16.62,GL,1612670085
montes claros,-16.735,-43.8617,68.14,94,100,6.8,BR,1612670085
makokou,0.5738,12.8642,70.47,92,83,3.11,GA,1612670085
west wendover,40.7391,-114.0733,51.8,20,1,24.16,US,1612670016
matay,28.419,30.7792,52.32,91,0,5.61,EG,1612670086
onguday,50.75,86.15,21.87,88,66,5.19,RU,1612670086
eyl,7.9803,49.8164,75.67,77,53,13.91,SO,1612670086
champerico,14.3,-91.9167,63.0,93,0,6.11,GT,1612670086
vestmanna,62.1564,-7.1664,35.6,60,75,16.11,FO,1612670086
moa,20.6569,-74.9403,75.16,87,6,10.42,CU,1612670086
bonthe,7.5264,-12.505,76.48,83,5,3.71,SL,1612670086
visby,57.6409,18.296,26.6,80,90,6.91,SE,1612670086
muyezerskiy,63.9333,31.65,12.94,96,100,8.79,RU,1612670086
itarema,-2.9248,-39.9167,76.89,87,14,8.28,BR,1612670087
poum,-20.2333,164.0167,80.89,67,0,6.96,NC,1612669974
riyadh,24.6877,46.7219,55.4,71,0,8.05,SA,1612669844
cuitlahuac,18.8167,-96.7167,75.99,94,1,4.61,MX,1612670087
conde,-7.2597,-34.9075,78.8,83,0,3.44,BR,1612670000
breves,-1.6822,-50.4803,74.77,95,5,4.18,BR,1612670088
namatanai,-3.6667,152.4333,85.6,65,75,7.85,PG,1612669980
iberia,29.9502,-91.7507,57.99,94,90,6.38,US,1612670088
santa isabel,-23.3156,-46.2214,66.2,88,40,3.44,BR,1612670088
lincoln,40.8,-96.667,3.99,81,79,1.01,US,1612670013
chara,56.9064,118.2631,-7.96,76,40,1.21,RU,1612670088
hovd,48.0056,91.6419,14.83,85,0,2.26,MN,1612670089
tuatapere,-46.1333,167.6833,67.32,57,5,7.36,NZ,1612670089
maragogi,-9.0122,-35.2225,76.89,86,18,8.3,BR,1612670089
puerto palomas,31.7667,-107.6167,48.2,21,1,6.91,MX,1612670089
moose factory,51.2585,-80.6094,-5.8,77,90,5.75,CA,1612669502
nhulunbuy,-12.2333,136.7667,82.4,83,75,14.97,AU,1612670089
ambovombe,-25.1667,46.0833,78.35,88,28,5.48,MG,1612670089
yacuiba,-22.038,-63.6797,71.4,58,36,2.73,BO,1612670089
qasigiannguit,68.8193,-51.1922,28.4,40,0,23.02,GL,1612670089
mount pleasant,32.7941,-79.8626,46.4,100,90,4.61,US,1612669375
ewa beach,21.3156,-158.0072,78.8,44,1,13.8,US,1612669981
okhotsk,59.3833,143.3,6.15,87,97,23.53,RU,1612670090
imbituba,-28.24,-48.6703,71.6,73,0,4.61,BR,1612669824
dubbo,-32.25,148.6167,80.6,36,40,8.05,AU,1612670090
tura,25.5198,90.2201,71.2,39,100,2.62,IN,1612670090
broken hill,-31.95,141.4333,75.2,41,0,16.11,AU,1612669814
porto novo,6.4965,2.6036,84.2,84,40,12.66,BJ,1612669535
asosa,10.0667,34.5333,55.56,33,26,6.89,ET,1612669826
harlingen,26.1906,-97.6961,61.0,100,1,6.91,US,1612669947
hasaki,35.7333,140.8333,64.0,29,20,5.75,JP,1612669920
